{
"type": "FeatureCollection",
"name": "libraries",
"crs": { "type": "name", "properties": { "name": "urn:ogc:def:crs:OGC:1.3:CRS84" } },
"features": [
{ "type": "Feature", "properties": { "name": "Altrincham Library", "type": "Local authority run library", "address": "2 Pott Street, Altrincham", "postcode": "WA14 1AH", "email": "altrincham.library@trafford.gov.uk", "website": "https://www.trafford.gov.uk/residents/leisure-and-lifestyle/libraries/libraries-in-trafford/altrincham-library.aspx" }, "geometry": { "type": "Point", "coordinates": [ -2.352156600534233, 53.387054682104448 ] } },
{ "type": "Feature", "properties": { "name": "Coppice Library", "type": "Partnership run library", "address": "Coppice Avenue, Sale", "postcode": "M33 4ND", "email": "coppice.library@trafford.gov.uk", "website": "https://www.trafford.gov.uk/residents/leisure-and-lifestyle/libraries/libraries-in-trafford/coppice-library.aspx" }, "geometry": { "type": "Point", "coordinates": [ -2.351126, 53.414091 ] } },
{ "type": "Feature", "properties": { "name": "Hale Library", "type": "Local authority run library", "address": "25 Cecil Road, Hale", "postcode": "WA15 9NT", "email": "hale.library@trafford.gov.uk", "website": "https://www.trafford.gov.uk/residents/leisure-and-lifestyle/libraries/libraries-in-trafford/hale-library.aspx" }, "geometry": { "type": "Point", "coordinates": [ -2.345594, 53.376032 ] } },
{ "type": "Feature", "properties": { "name": "Lostock Library", "type": "Lostock High School run library", "address": "Selby Road, Stretford", "postcode": "M32 9PL", "email": "achilds@lostock.trafford.sch.uk", "website": "https://www.trafford.gov.uk/residents/leisure-and-lifestyle/libraries/libraries-in-trafford/lostock-library.aspx" }, "geometry": { "type": "Point", "coordinates": [ -2.330413, 53.454859 ] } },
{ "type": "Feature", "properties": { "name": "Old Trafford Library at Limelight", "type": "Local authority run library", "address": "1 St Brides Way, Old Trafford", "postcode": "M16 9NW", "email": "oldtrafford.library@trafford.gov.uk", "website": "https://www.trafford.gov.uk/residents/leisure-and-lifestyle/libraries/libraries-in-trafford/old-trafford.aspx" }, "geometry": { "type": "Point", "coordinates": [ -2.261906, 53.461415 ] } },
{ "type": "Feature", "properties": { "name": "Partington Library and Wellbeing Centre", "type": "Local authority run library", "address": "91 Central Road, Partington", "postcode": "M31 4FY", "email": "partington.library@trafford.gov.uk", "website": "https://www.trafford.gov.uk/residents/leisure-and-lifestyle/libraries/libraries-in-trafford/partington-library.aspx" }, "geometry": { "type": "Point", "coordinates": [ -2.425432, 53.417677 ] } },
{ "type": "Feature", "properties": { "name": "Sale Library", "type": "Local authority run library", "address": "Sale Waterside, Sale", "postcode": "M33 7ZF", "email": "sale.library@trafford.gov.uk", "website": "https://www.trafford.gov.uk/residents/leisure-and-lifestyle/libraries/libraries-in-trafford/sale-library.aspx" }, "geometry": { "type": "Point", "coordinates": [ -2.31987, 53.42533 ] } },
{ "type": "Feature", "properties": { "name": "Stretford Library", "type": "Local authority run library", "address": "Kingsway, Stretford", "postcode": "M32 8AP", "email": "stretford.library@trafford.gov.uk", "website": "https://www.trafford.gov.uk/residents/leisure-and-lifestyle/libraries/libraries-in-trafford/stretford-library.aspx" }, "geometry": { "type": "Point", "coordinates": [ -2.312512, 53.44607 ] } },
{ "type": "Feature", "properties": { "name": "Timperley Library", "type": "Local authority run library", "address": "405 Stockport Road, Timperley", "postcode": "WA15 7XR", "email": "timperley.library@trafford.gov.uk", "website": "https://www.trafford.gov.uk/residents/leisure-and-lifestyle/libraries/libraries-in-trafford/timperley-library.aspx" }, "geometry": { "type": "Point", "coordinates": [ -2.316245371300329, 53.398258527966902 ] } },
{ "type": "Feature", "properties": { "name": "Trafford Local Studies Centre", "type": "Local authority run library", "address": "Sale Waterside, Sale", "postcode": "M33 7ZF", "email": "trafflocals@trafford.gov.uk", "website": "https://www.trafford.gov.uk/residents/leisure-and-lifestyle/libraries/Local-Studies/Trafford-Local-Studies.aspx" }, "geometry": { "type": "Point", "coordinates": [ -2.319808, 53.425528 ] } },
{ "type": "Feature", "properties": { "name": "Trafford Town Hall Library", "type": "Local authority run library", "address": "Ground Floor, Trafford Town Hall, Talbot Road, Stretford", "postcode": "M32 0TH", "email": "libraries@trafford.gov.uk", "website": "https://www.trafford.gov.uk/residents/leisure-and-lifestyle/libraries/libraries-in-trafford/town-hall-library.aspx" }, "geometry": { "type": "Point", "coordinates": [ -2.287278, 53.45874 ] } },
{ "type": "Feature", "properties": { "name": "Urmston Library", "type": "Local authority run library", "address": "Unit 34, Golden Way, Urmston", "postcode": "M41 0NA", "email": "urmston.library@trafford.gov.uk", "website": "https://www.trafford.gov.uk/residents/leisure-and-lifestyle/libraries/libraries-in-trafford/urmston-library.aspx" }, "geometry": { "type": "Point", "coordinates": [ -2.35352, 53.449577 ] } },
{ "type": "Feature", "properties": { "name": "Woodsend Library", "type": "Local authority run library", "address": "Woodsend Road, Flixton", "postcode": "M41 8GN", "email": "urmston.library@trafford.gov.uk", "website": "https://www.trafford.gov.uk/residents/leisure-and-lifestyle/libraries/libraries-in-trafford/woodsend-library.aspx" }, "geometry": { "type": "Point", "coordinates": [ -2.393166, 53.453354 ] } }
]
}
