{
"type": "FeatureCollection",
"name": "libraries",
"crs": { "type": "name", "properties": { "name": "urn:ogc:def:crs:OGC:1.3:CRS84" } },
"features": [
{ "type": "Feature", "properties": { "name": "Altrincham Library", "type": "Local authority", "address": "20 Stamford New Road, Altrincham", "postcode": "WA14 1EJ", "email": "altrincham.library@trafford.gov.uk", "website": "http:\/\/www.trafford.gov.uk\/residents\/leisure-and-lifestyle\/libraries\/libraries-in-trafford\/altrincham-library.aspx" }, "geometry": { "type": "Point", "coordinates": [ -2.348369, 53.387758 ] } },
{ "type": "Feature", "properties": { "name": "Coppice Library", "type": "Community", "address": "Coppice Avenue, Sale", "postcode": "M33 4ND", "email": "coppice.library@trafford.gov.uk", "website": "http:\/\/www.trafford.gov.uk\/residents\/leisure-and-lifestyle\/libraries\/libraries-in-trafford\/coppice-library.aspx." }, "geometry": { "type": "Point", "coordinates": [ -2.351126, 53.414091 ] } },
{ "type": "Feature", "properties": { "name": "Hale Library", "type": "Local authority", "address": "Leigh Road, Hale", "postcode": "WA15 9BG", "email": "hale.library@trafford.gov.uk", "website": "http:\/\/www.trafford.gov.uk\/residents\/leisure-and-lifestyle\/libraries\/libraries-in-trafford\/hale-library.aspx" }, "geometry": { "type": "Point", "coordinates": [ -2.344329, 53.376717 ] } },
{ "type": "Feature", "properties": { "name": "Lostock Library", "type": "Community", "address": "Selby Road, Stretford", "postcode": "M32 9PL", "email": "libraries@trafford.gov.uk", "website": "http:\/\/www.trafford.gov.uk\/residents\/leisure-and-lifestyle\/libraries\/libraries-in-trafford\/lostock-library.aspx" }, "geometry": { "type": "Point", "coordinates": [ -2.330413, 53.454859 ] } },
{ "type": "Feature", "properties": { "name": "Old Trafford Library at Limelight", "type": "Local authority", "address": "Shrewsbury Street, Old Trafford", "postcode": "M16 9AX", "email": "oldtrafford.library@trafford.gov.uk", "website": "http:\/\/www.trafford.gov.uk\/residents\/leisure-and-lifestyle\/libraries\/libraries-in-trafford\/old-trafford.aspx" }, "geometry": { "type": "Point", "coordinates": [ -2.261906, 53.461415 ] } },
{ "type": "Feature", "properties": { "name": "Partington Library and Wellbeing Centre", "type": "Local authority", "address": "Central Road, Partington", "postcode": "M31 4FY", "email": "partington.library@trafford.gov.uk", "website": "http:\/\/www.trafford.gov.uk\/residents\/leisure-and-lifestyle\/libraries\/libraries-in-trafford\/partington-library.aspx" }, "geometry": { "type": "Point", "coordinates": [ -2.425432, 53.417677 ] } },
{ "type": "Feature", "properties": { "name": "Sale Library", "type": "Local authority", "address": "Sale Waterside, Sale", "postcode": "M33 7ZF", "email": "sale.library@trafford.gov.uk", "website": "http:\/\/www.trafford.gov.uk\/residents\/leisure-and-lifestyle\/libraries\/libraries-in-trafford\/sale-library.aspx" }, "geometry": { "type": "Point", "coordinates": [ -2.31987, 53.42533 ] } },
{ "type": "Feature", "properties": { "name": "Stretford Library", "type": "Local authority", "address": "Kingsway, Stretford", "postcode": "M32 8AP", "email": "stretford.library@trafford.gov.uk", "website": "http:\/\/www.trafford.gov.uk\/residents\/leisure-and-lifestyle\/libraries\/libraries-in-trafford\/stretford-library.aspx" }, "geometry": { "type": "Point", "coordinates": [ -2.312512, 53.44607 ] } },
{ "type": "Feature", "properties": { "name": "Timperley Library", "type": "Local authority", "address": "Riddings Community Centre, 121 Park Road, Timperley", "postcode": "WA15 6QQ", "email": "timperley.library@trafford.gov.uk", "website": "http:\/\/www.trafford.gov.uk\/residents\/leisure-and-lifestyle\/libraries\/libraries-in-trafford\/timperley-library.aspx" }, "geometry": { "type": "Point", "coordinates": [ -2.328579, 53.402114 ] } },
{ "type": "Feature", "properties": { "name": "Trafford Local Studies Centre", "type": "Local authority", "address": "Sale Waterside, Sale", "postcode": "M33 7ZF", "email": "trafflocals@trafford.gov.uk", "website": "http:\/\/www.trafford.gov.uk\/residents\/leisure-and-lifestyle\/libraries\/archives-and-local-history.aspx" }, "geometry": { "type": "Point", "coordinates": [ -2.319808, 53.425528 ] } },
{ "type": "Feature", "properties": { "name": "Trafford Town Hall Library", "type": "Local authority", "address": "Ground Floor, Trafford Town Hall, Talbot Road, Stretford", "postcode": "M32 0TH", "email": "libraries@trafford.gov.uk", "website": "http:\/\/www.trafford.gov.uk\/residents\/leisure-and-lifestyle\/libraries\/libraries-in-trafford\/town-hall-library.aspx" }, "geometry": { "type": "Point", "coordinates": [ -2.287278, 53.45874 ] } },
{ "type": "Feature", "properties": { "name": "Urmston Library", "type": "Local authority", "address": "Unit 3, Golden Way, Urmston", "postcode": "M41 0NA", "email": "urmston.library@trafford.gov.uk", "website": "http:\/\/www.trafford.gov.uk\/residents\/leisure-and-lifestyle\/libraries\/libraries-in-trafford\/urmston-library.aspx" }, "geometry": { "type": "Point", "coordinates": [ -2.35352, 53.449577 ] } },
{ "type": "Feature", "properties": { "name": "Woodsend Library", "type": "Local authority", "address": "Woodsend Road, Flixton", "postcode": "M41 8GN", "email": "woodsend.library@trafford.gov.uk", "website": "http:\/\/www.trafford.gov.uk\/residents\/leisure-and-lifestyle\/libraries\/libraries-in-trafford\/woodsend-library.aspx" }, "geometry": { "type": "Point", "coordinates": [ -2.393166, 53.453354 ] } }
]
}
